stop_id,stop_code,stop_name,stop_lat,stop_lon,stop_url
1800EB06161,mantgajt,"Manchester City Centre, Piccadilly/Chatham St (Stop EX)",53.48039,-2.23418,http://www.transportdirect.info/web2/journeyplanning/StopInformationLandingPage.aspx?et=si&id=GTDF&ef=m&st=n&sd=1800EB06161
1800EB07051,mantgdja,"Manchester City Centre, o/s Shops Piccadilly Rail Station",53.47824,-2.23192,http://www.transportdirect.info/web2/journeyplanning/StopInformationLandingPage.aspx?et=si&id=GTDF&ef=m&st=n&sd=1800EB07051
1800EB12831,managdma,"Manchester City Centre, nr Station Piccadilly Rail Station",53.47777,-2.23192,http://www.transportdirect.info/web2/journeyplanning/StopInformationLandingPage.aspx?et=si&id=GTDF&ef=m&st=n&sd=1800EB12831
1800NB04351,mandjmtd,"Manchester City Centre, Corporation St/Victoria (Stop NS)",53.48668,-2.24104,http://www.transportdirect.info/web2/journeyplanning/StopInformationLandingPage.aspx?et=si&id=GTDF&ef=m&st=n&sd=1800NB04351
1800NB04411,mandjmtw,"Manchester City Centre, Victoria Station Approach (Stop Nx)",53.48603,-2.24197,http://www.transportdirect.info/web2/journeyplanning/StopInformationLandingPage.aspx?et=si&id=GTDF&ef=m&st=n&sd=1800NB04411
1800NB04431,mandjmwd,"Manchester City Centre, Victoria Station Approach (Stop Ny)",53.48726,-2.24298,http://www.transportdirect.info/web2/journeyplanning/StopInformationLandingPage.aspx?et=si&id=GTDF&ef=m&st=n&sd=1800NB04431
1800NB05001,mandjmwt,"Manchester City Centre, John Dalton St/Deansgate (Stop WX)",53.4807,-2.24773,http://www.transportdirect.info/web2/journeyplanning/StopInformationLandingPage.aspx?et=si&id=GTDF&ef=m&st=n&sd=1800NB05001
1800NB05021,mandjpag,"Manchester City Centre, Bridge St/Gartside St (Stop WW)",53.48137,-2.25164,http://www.transportdirect.info/web2/journeyplanning/StopInformationLandingPage.aspx?et=si&id=GTDF&ef=m&st=n&sd=1800NB05021
1800NB29861,mandjtmj,"Spinningfields, Quay Street/Deansgate (Stop Wk)",53.4785,-2.25091,http://www.transportdirect.info/web2/journeyplanning/StopInformationLandingPage.aspx?et=si&id=GTDF&ef=m&st=n&sd=1800NB29861
1800NB29921,mandjtpg,"Castlefield, Liverpool Road/Barton St (Stop Wo)",53.47604,-2.25267,http://www.transportdirect.info/web2/journeyplanning/StopInformationLandingPage.aspx?et=si&id=GTDF&ef=m&st=n&sd=1800NB29921
1800NF03811,mangjmpm,"Salford Central Station, New Bailey St/Salford Station (Stop WV)",53.48286,-2.25427,http://www.transportdirect.info/web2/journeyplanning/StopInformationLandingPage.aspx?et=si&id=GTDF&ef=m&st=n&sd=1800NF03811
1800NF04821,mantgjap,"Salford Central Station, o/s Flats Chapel St/Trinity Way",53.48349,-2.25634,http://www.transportdirect.info/web2/journeyplanning/StopInformationLandingPage.aspx?et=si&id=GTDF&ef=m&st=n&sd=1800NF04821
1800SB02131,mangpgpd,"Manchester City Centre, York St/Mosley St (Stop Cv)",53.48087,-2.24087,http://www.transportdirect.info/web2/journeyplanning/StopInformationLandingPage.aspx?et=si&id=GTDF&ef=m&st=n&sd=1800SB02131
1800SB03991,mangpgtp,"Manchester City Centre, Princess Street/Art Gallery (SE-bound)",53.47851,-2.24184,http://www.transportdirect.info/web2/journeyplanning/StopInformationLandingPage.aspx?et=si&id=GTDF&ef=m&st=n&sd=1800SB03991
1800SB04011,mangpgtw,"Manchester City Centre, o/s Toy Shop Deansgate/King Street West",53.48125,-2.24785,http://www.transportdirect.info/web2/journeyplanning/StopInformationLandingPage.aspx?et=si&id=GTDF&ef=m&st=n&sd=1800SB04011
1800SB04121,mangpgwa,"Spinningfields, Deansgate/Spinningfields (N-bound)",53.48011,-2.24862,http://www.transportdirect.info/web2/journeyplanning/StopInformationLandingPage.aspx?et=si&id=GTDF&ef=m&st=n&sd=1800SB04121
1800SB04191,mangpgwd,"Manchester City Centre, Peter Street/Free Trade Hall (E-bound)",53.47817,-2.24793,http://www.transportdirect.info/web2/journeyplanning/StopInformationLandingPage.aspx?et=si&id=GTDF&ef=m&st=n&sd=1800SB04191
1800SB04741,mangpjdg,"Manchester City Centre, Deansgate/John Rylands Library (Stop Wh)",53.47988,-2.24849,http://www.transportdirect.info/web2/journeyplanning/StopInformationLandingPage.aspx?et=si&id=GTDF&ef=m&st=n&sd=1800SB04741
1800SB04761,mangpjdm,"Manchester City Centre, Deansgate/Barton Arcade (Stop Na)",53.48276,-2.2466,http://www.transportdirect.info/web2/journeyplanning/StopInformationLandingPage.aspx?et=si&id=GTDF&ef=m&st=n&sd=1800SB04761
1800SB04771,mangpjdp,"Manchester City Centre, Deansgate/Barton Arcade (Stop Nb)",53.48271,-2.24687,http://www.transportdirect.info/web2/journeyplanning/StopInformationLandingPage.aspx?et=si&id=GTDF&ef=m&st=n&sd=1800SB04771
1800SB04801,mangpjga,"Manchester City Centre, Chorlton St/Coach Station (Stop Ev)",53.47817,-2.23697,http://www.transportdirect.info/web2/journeyplanning/StopInformationLandingPage.aspx?et=si&id=GTDF&ef=m&st=n&sd=1800SB04801
1800SB04811,mangpjgd,"Manchester City Centre, Chorlton Street/Aytoun Campus (Stop Eu)",53.47718,-2.23522,http://www.transportdirect.info/web2/journeyplanning/StopInformationLandingPage.aspx?et=si&id=GTDF&ef=m&st=n&sd=1800SB04811
1800SB04861,mangpjgw,"Manchester City Centre, Peter Street/Edwardian Hotel (Stop Sj)",53.47796,-2.24734,http://www.transportdirect.info/web2/journeyplanning/StopInformationLandingPage.aspx?et=si&id=GTDF&ef=m&st=n&sd=1800SB04861
1800SB04881,mangpjmg,"Manchester City Centre, Oxford Street/St.Peter's Square (Stop Sn)",53.47658,-2.24306,http://www.transportdirect.info/web2/journeyplanning/StopInformationLandingPage.aspx?et=si&id=GTDF&ef=m&st=n&sd=1800SB04881
1800SB04921,mangpjmw,"Manchester City Centre, Oxford Rd/Oxford Rd Stn (Stop C)",53.47362,-2.24037,http://www.transportdirect.info/web2/journeyplanning/StopInformationLandingPage.aspx?et=si&id=GTDF&ef=m&st=n&sd=1800SB04921
1800SB04971,mangpjpm,"Manchester City Centre, Princess St/Major St (Stop Sl)",53.47713,-2.2396,http://www.transportdirect.info/web2/journeyplanning/StopInformationLandingPage.aspx?et=si&id=GTDF&ef=m&st=n&sd=1800SB04971
1800SB05751,mangpjtj,"Albert Square, Princess Street/Town Hall (Stop Sc)",53.47926,-2.24331,http://www.transportdirect.info/web2/journeyplanning/StopInformationLandingPage.aspx?et=si&id=GTDF&ef=m&st=n&sd=1800SB05751
1800SB05791,mangpjwa,"Manchester City Centre, King Street/Cross Street (Stop Cp)",53.48092,-2.24395,http://www.transportdirect.info/web2/journeyplanning/StopInformationLandingPage.aspx?et=si&id=GTDF&ef=m&st=n&sd=1800SB05791
1800SB05801,mangpjwd,"Manchester City Centre, King Street/Brown Street (Stop Co)",53.48098,-2.24336,http://www.transportdirect.info/web2/journeyplanning/StopInformationLandingPage.aspx?et=si&id=GTDF&ef=m&st=n&sd=1800SB05801
1800SB05811,mangpjwg,"Manchester City Centre, Charlotte St/Mosley Street (Stop Cr)",53.4796,-2.24064,http://www.transportdirect.info/web2/journeyplanning/StopInformationLandingPage.aspx?et=si&id=GTDF&ef=m&st=n&sd=1800SB05811
1800SB05831,mangpjwm,"Manchester City Centre, Charlotte Street/Portland St (Stop Ct)",53.47868,-2.23878,http://www.transportdirect.info/web2/journeyplanning/StopInformationLandingPage.aspx?et=si&id=GTDF&ef=m&st=n&sd=1800SB05831
1800SB05901,mangpmag,"Manchester City Centre, opp Sugarlounge Whitworth Street West/Hacienda",53.47424,-2.24897,http://www.transportdirect.info/web2/journeyplanning/StopInformationLandingPage.aspx?et=si&id=GTDF&ef=m&st=n&sd=1800SB05901
1800SB05911,mangpmaj,"Manchester City Centre, Whitworth Street West/Gloucester Street (W-bound)",53.4739,-2.24517,http://www.transportdirect.info/web2/journeyplanning/StopInformationLandingPage.aspx?et=si&id=GTDF&ef=m&st=n&sd=1800SB05911
1800SB06381,mangpmam,"Manchester City Centre, Oxford Road Station (NE-bound)",53.47421,-2.24165,http://www.transportdirect.info/web2/journeyplanning/StopInformationLandingPage.aspx?et=si&id=GTDF&ef=m&st=n&sd=1800SB06381
1800SB08961,mantgapj,"Manchester City Centre, Portland Street/Basil House (SW-bound)",53.47707,-2.24075,http://www.transportdirect.info/web2/journeyplanning/StopInformationLandingPage.aspx?et=si&id=GTDF&ef=m&st=n&sd=1800SB08961
1800SB09201,mantgawa,"Manchester City Centre, nr Museum Lower Byrom Street/Science Museum",53.47757,-2.2539,http://www.transportdirect.info/web2/journeyplanning/StopInformationLandingPage.aspx?et=si&id=GTDF&ef=m&st=n&sd=1800SB09201
1800SB09641,mantgawg,"Spinningfields, Byrom Street/Hardman Street (N-bound)",53.4795,-2.25157,http://www.transportdirect.info/web2/journeyplanning/StopInformationLandingPage.aspx?et=si&id=GTDF&ef=m&st=n&sd=1800SB09641
1800SB09651,mantgatp,"Manchester City Centre, Portland Street/Sackville Street (SW-bound)",53.47832,-2.23858,http://www.transportdirect.info/web2/journeyplanning/StopInformationLandingPage.aspx?et=si&id=GTDF&ef=m&st=n&sd=1800SB09651
1800SB09671,mantgdag,"Spinningfields, Quay Street/Lower Byrom Street (W-bound)",53.47894,-2.25358,http://www.transportdirect.info/web2/journeyplanning/StopInformationLandingPage.aspx?et=si&id=GTDF&ef=m&st=n&sd=1800SB09671
1800SB09871,mantgatm,"Spinningfields, New Quay Street/Irwell Bridge (NW-bound)",53.4807,-2.25611,http://www.transportdirect.info/web2/journeyplanning/StopInformationLandingPage.aspx?et=si&id=GTDF&ef=m&st=n&sd=1800SB09871
1800SB09991,mangptag,"Manchester City Centre, Whitworth St/Sackville Gardens (NE-bound)",53.47647,-2.2353,http://www.transportdirect.info/web2/journeyplanning/StopInformationLandingPage.aspx?et=si&id=GTDF&ef=m&st=n&sd=1800SB09991
1800SB10121,mantgawd,"Spinningfields, Gartside Street/Spinningfields (S-bound)",53.48001,-2.25264,http://www.transportdirect.info/web2/journeyplanning/StopInformationLandingPage.aspx?et=si&id=GTDF&ef=m&st=n&sd=1800SB10121
1800SB10411,mantgawj,"Manchester City Centre, nr Bt Building Medlock Street/Grand Island",53.47291,-2.24796,http://www.transportdirect.info/web2/journeyplanning/StopInformationLandingPage.aspx?et=si&id=GTDF&ef=m&st=n&sd=1800SB10411
1800SB10431,mantgatw,"Manchester City Centre, Medlock Street/Mancunian Way (S-bound)",53.47207,-2.24757,http://www.transportdirect.info/web2/journeyplanning/StopInformationLandingPage.aspx?et=si&id=GTDF&ef=m&st=n&sd=1800SB10431
1800SB10511,mantgatj,"Manchester City Centre, Chester Street/Oxford Road (NE-bound)",53.47204,-2.24107,http://www.transportdirect.info/web2/journeyplanning/StopInformationLandingPage.aspx?et=si&id=GTDF&ef=m&st=n&sd=1800SB10511
1800SB12101,mangptmd,"Manchester City Centre, Whitworth St West/Oxford Rd Stn (Stop A)",53.47442,-2.24203,http://www.transportdirect.info/web2/journeyplanning/StopInformationLandingPage.aspx?et=si&id=GTDF&ef=m&st=n&sd=1800SB12101
1800SB12191,mangptpa,"Castlefield, Deansgate/Tonman St (Stop Wn)",53.47647,-2.25051,http://www.transportdirect.info/web2/journeyplanning/StopInformationLandingPage.aspx?et=si&id=GTDF&ef=m&st=n&sd=1800SB12191
1800SB12201,mangptpd,"Manchester City Centre, Deansgate/Peter Street (Stop Wm)",53.47789,-2.24967,http://www.transportdirect.info/web2/journeyplanning/StopInformationLandingPage.aspx?et=si&id=GTDF&ef=m&st=n&sd=1800SB12201
1800SB12261,mangptpt,"Manchester City Centre, Deansgate Station (Stop C)",53.47435,-2.25099,http://www.transportdirect.info/web2/journeyplanning/StopInformationLandingPage.aspx?et=si&id=GTDF&ef=m&st=n&sd=1800SB12261
1800SB12271,mangptpw,"Manchester City Centre, Deansgate Station (Stop D)",53.47447,-2.25066,http://www.transportdirect.info/web2/journeyplanning/StopInformationLandingPage.aspx?et=si&id=GTDF&ef=m&st=n&sd=1800SB12271
1800SB12551,mantgdwj,"Manchester City Centre, Deansgate/St Mary's Gate (Stop Nd)",53.48376,-2.24583,http://www.transportdirect.info/web2/journeyplanning/StopInformationLandingPage.aspx?et=si&id=GTDF&ef=m&st=n&sd=1800SB12551
1800SB17081,mantjapw,"Piccadilly Gardens, nr Art Gallery New York Street/George Street",53.48025,-2.23936,http://www.transportdirect.info/web2/journeyplanning/StopInformationLandingPage.aspx?et=si&id=GTDF&ef=m&st=n&sd=1800SB17081
1800SB45331,mangwpgj,"Manchester City Centre, Cross Street/Royal Exchange (Stop Cw)",53.48269,-2.24375,http://www.transportdirect.info/web2/journeyplanning/StopInformationLandingPage.aspx?et=si&id=GTDF&ef=m&st=n&sd=1800SB45331
1800SB45351,mangwpgp,"Manchester City Centre, St Mary's Gate/Exchange St (Stop Cz)",53.48322,-2.24431,http://www.transportdirect.info/web2/journeyplanning/StopInformationLandingPage.aspx?et=si&id=GTDF&ef=m&st=n&sd=1800SB45351
1800SB45371,mangwpgw,"Albert Square, Albert Square (Stop We)",53.47928,-2.2459,http://www.transportdirect.info/web2/journeyplanning/StopInformationLandingPage.aspx?et=si&id=GTDF&ef=m&st=n&sd=1800SB45371
1800SHIC001,mantmpgw,"Shudehill, nr The Printworks Shudehill Interchange",53.48547,-2.23837,http://www.transportdirect.info/web2/journeyplanning/StopInformationLandingPage.aspx?et=si&id=GTDF&ef=m&st=n&sd=1800SHIC001
